{
  "siteName": "Ridgeway Industrial Site",
  "center": { "lat": 28.4598, "lng": 77.0270 },
  "zones": [
    {
      "id": "zone_gate3",
      "name": "Gate 3 Area",
      "type": "entrance",
      "accessLevel": "public",
      "polygon": [
        { "lat": 28.4593, "lng": 77.0263 },
        { "lat": 28.4599, "lng": 77.0263 },
        { "lat": 28.4599, "lng": 77.0270 },
        { "lat": 28.4593, "lng": 77.0270 }
      ]
    },
    {
      "id": "zone_blockc",
      "name": "Block C Storage",
      "type": "storage",
      "accessLevel": "restricted",
      "polygon": [
        { "lat": 28.4599, "lng": 77.0272 },
        { "lat": 28.4605, "lng": 77.0272 },
        { "lat": 28.4605, "lng": 77.0280 },
        { "lat": 28.4599, "lng": 77.0280 }
      ]
    },
    {
      "id": "zone_perimeter_east",
      "name": "East Perimeter",
      "type": "perimeter",
      "accessLevel": "public",
      "polygon": [
        { "lat": 28.4590, "lng": 77.0260 },
        { "lat": 28.4608, "lng": 77.0260 },
        { "lat": 28.4608, "lng": 77.0263 },
        { "lat": 28.4590, "lng": 77.0263 }
      ]
    },
    {
      "id": "zone_workarea_a",
      "name": "Work Area A",
      "type": "work_area",
      "accessLevel": "public",
      "polygon": [
        { "lat": 28.4593, "lng": 77.0270 },
        { "lat": 28.4599, "lng": 77.0270 },
        { "lat": 28.4599, "lng": 77.0272 },
        { "lat": 28.4593, "lng": 77.0272 }
      ]
    }
  ],
  "assets": [
    {
      "id": "ap_gate3_main",
      "type": "access_point",
      "name": "Gate 3 Main Access",
      "coordinates": { "lat": 28.4597, "lng": 77.0268 },
      "status": "online"
    },
    {
      "id": "ap_blockc_storage",
      "type": "access_point",
      "name": "Block C Storage Access",
      "coordinates": { "lat": 28.4602, "lng": 77.0276 },
      "status": "online"
    },
    {
      "id": "ap_blockc_secondary",
      "type": "access_point",
      "name": "Block C Secondary Access",
      "coordinates": { "lat": 28.4603, "lng": 77.0278 },
      "status": "online"
    },
    {
      "id": "cam_gate3_01",
      "type": "camera",
      "name": "Gate 3 Entrance Camera",
      "coordinates": { "lat": 28.4596, "lng": 77.0267 },
      "status": "online"
    },
    {
      "id": "cam_blockc_01",
      "type": "camera",
      "name": "Block C Overview Camera",
      "coordinates": { "lat": 28.4602, "lng": 77.0274 },
      "status": "online"
    },
    {
      "id": "sensor_fence_g3",
      "type": "sensor",
      "name": "Gate 3 Fence Sensor",
      "coordinates": { "lat": 28.4595, "lng": 77.0266 },
      "status": "online"
    },
    {
      "id": "building_blockc",
      "type": "building",
      "name": "Block C Warehouse",
      "coordinates": { "lat": 28.4602, "lng": 77.0276 },
      "status": "online"
    }
  ]
}